{"id": 33, "name": "Terrace", "menu_summary": "Burrito and rice bowls, pho", "image_url": "https://raw.githubusercontent.com/cuappdev/assets/master/eatery/eatery-images/Terrace.jpg", "location": "Statler Hall", "campus_area": "Central",  "latitude": 42.446267, "longitude": -76.482314, "payment_accepts_meal_swipes": false, "payment_accepts_brbs": true, "payment_accepts_cash": true, "online_order_url": null}
{"id": 34, "name": "Mac's Caf\u00e9", "menu_summary": "Flatbreads, pasta, sandwiches", "image_url": "https://raw.githubusercontent.com/cuappdev/assets/master/eatery/eatery-images/Macs-Cafe.jpg", "location": "Statler Hotel", "campus_area": "Central",  "latitude": 42.445921, "longitude": -76.481984, "payment_accepts_meal_swipes": false, "payment_accepts_brbs": true, "payment_accepts_cash": true, "online_order_url": null}
{"id": 35, "name": "Temple of Zeus", "menu_summary": "Coffee, pastries, sandwiches", "image_url": "https://raw.githubusercontent.com/cuappdev/assets/master/eatery/eatery-images/Zeus.jpg", "location": "Goldwin Smith Hall", "campus_area": "Central",  "latitude": 42.449091, "longitude": -76.483414, "payment_accepts_meal_swipes": false, "payment_accepts_brbs": false, "payment_accepts_cash": true, "online_order_url": null}
{"id": 36, "name": "Gimme Coffee", "menu_summary": "Coffee, pastries, tea", "image_url": "https://raw.githubusercontent.com/cuappdev/assets/master/eatery/eatery-images/Gimme-Coffee.jpg", "location": "Gates Hall", "campus_area": "Central",  "latitude": 42.444958, "longitude": -76.481169, "payment_accepts_meal_swipes": false, "payment_accepts_brbs": false, "payment_accepts_cash": true, "online_order_url": null}
{"id": 37, "name": "Louie's Lunch", "menu_summary": "Burgers, fries, shakes", "image_url": "https://raw.githubusercontent.com/cuappdev/assets/master/eatery/eatery-images/Louies-Lunch.jpg", "location": "Across from Risley", "campus_area": "Central",  "latitude": 42.45336, "longitude": -76.481225, "payment_accepts_meal_swipes": false, "payment_accepts_brbs": false, "payment_accepts_cash": true, "online_order_url": null}
{"id": 38, "name": "Anabel's Grocery", "menu_summary": "Groceries, quick bites", "image_url": "https://raw.githubusercontent.com/cuappdev/assets/master/eatery/eatery-images/Anabels-Grocery.jpg", "location": "Anabel Taylor Hall", "campus_area": "Central",  "latitude": 42.445061, "longitude": -76.485826, "payment_accepts_meal_swipes": false, "payment_accepts_brbs": false, "payment_accepts_cash": true, "online_order_url": null}